City_ID,City,Lat,Lng,Max Temp,Humidity,Cloudiness,Wind Speed,Country,Date
0,Rikitea,-23.1203,-134.9692,79.21,75,7,10.27,PF,1616521508
1,George Town,5.4112,100.3354,78.8,94,20,1.14,MY,1616521508
2,Bluff,-46.6,168.3333,53.01,98,95,4.7,NZ,1616521509
3,Dikson,73.5069,80.5464,-21.71,99,50,6.85,RU,1616521509
4,Waingapu,-9.6567,120.2641,78.19,84,95,5.03,ID,1616521509
5,Chui,-33.6971,-53.4616,73.83,59,31,8.72,UY,1616521510
6,Bud,39.447,-86.1758,63.0,57,96,16.71,US,1616521510
7,Vila Franca do Campo,37.7167,-25.4333,55.4,88,40,17.27,PT,1616521510
8,Vaini,-21.2,-175.2,71.6,100,75,2.3,TO,1616521511
9,Scottsbluff,41.8666,-103.6672,44.6,76,1,20.71,US,1616521511
10,Mataura,-46.1927,168.8643,53.01,98,100,1.36,NZ,1616521511
11,Honningsvåg,70.9821,25.9704,35.6,64,90,54.09,NO,1616521512
12,Saskylakh,71.9167,114.0833,-38.18,100,49,5.7,RU,1616521512
13,Ushuaia,-54.8,-68.3,48.2,87,75,1.74,AR,1616521512
14,Nikolskoye,59.7035,30.7861,37.4,52,90,11.18,RU,1616521512
15,Tiksi,71.6872,128.8694,-26.0,100,100,4.94,RU,1616521513
16,Kommunisticheskiy,61.6789,64.4819,24.22,95,100,6.98,RU,1616521513
17,Ust-Nera,64.5667,143.2,-7.92,97,100,6.6,RU,1616521513
18,Puerto Ayora,-0.7393,-90.3518,82.0,83,75,4.97,EC,1616521514
19,Mar del Plata,-38.0023,-57.5575,73.4,60,40,8.05,AR,1616521500
20,Manuk Mangkaw,4.8,119.85,82.2,75,84,6.89,PH,1616521514
21,Karchaghbyur,40.1705,45.5779,39.99,80,100,8.25,AM,1616521514
22,Arrondissement de Saint-Denis,48.9167,2.3333,55.4,47,0,4.61,FR,1616521515
23,Busselton,-33.65,115.3333,51.01,94,0,1.01,AU,1616521515
24,Svidník,49.3082,21.5703,37.99,96,94,4.0,SK,1616521515
25,Saint Paul Harbor,57.79,-152.4072,32.0,74,1,6.91,US,1616521516
26,Cape Town,-33.9258,18.4232,78.01,64,0,13.8,ZA,1616521516
27,Punta Arenas,-53.15,-70.9167,50.0,76,75,10.36,CL,1616521516
28,Matara,5.9485,80.5353,77.58,87,100,9.31,LK,1616521269
29,Mogadishu,2.0371,45.3438,80.04,78,7,18.57,SO,1616521330
30,Vung Tau,10.346,107.0843,80.11,81,91,15.35,VN,1616521517
31,São João da Barra,-21.6403,-41.0511,87.8,55,40,9.22,BR,1616521517
32,Cherskiy,68.75,161.3,2.97,95,100,7.23,RU,1616521517
33,Lamesa,32.7376,-101.951,63.0,31,1,4.61,US,1616521518
34,Port Augusta,-32.5,137.7667,57.2,94,40,6.91,AU,1616521518
35,Berlevåg,70.8578,29.0864,32.0,93,90,40.29,NO,1616521518
36,Kayerkan,69.3497,87.7602,-5.19,94,100,7.81,RU,1616521518
37,Sitka,57.0531,-135.33,37.4,93,90,11.5,US,1616521519
38,Jamestown,42.097,-79.2353,59.0,25,1,10.4,US,1616521519
39,Port Alfred,-33.5906,26.891,69.44,72,20,18.01,ZA,1616521519
40,Mwanza,-2.5167,32.9,74.12,64,92,1.88,TZ,1616521456
41,Atuona,-9.8,-139.0333,80.65,67,14,20.18,PF,1616521520
42,Bengkulu,-3.8004,102.2655,75.29,89,100,6.2,ID,1616521333
43,Codrington,-38.2667,141.9667,61.14,94,100,16.78,AU,1616521520
44,Kaitangata,-46.2817,169.8464,52.79,93,100,3.58,NZ,1616521520
45,Englewood,39.6478,-104.9878,42.01,52,75,17.27,US,1616521520
46,Hong Kong,22.2855,114.1577,68.0,73,100,8.81,HK,1616521225
47,Kruisfontein,-34.0033,24.7314,69.01,76,0,5.99,ZA,1616521521
48,Cefalù,38.0386,14.0229,50.0,59,100,10.0,IT,1616521521
49,Butaritari,3.0707,172.7902,80.89,80,40,21.25,KI,1616521521
50,Hobart,-42.8794,147.3294,63.0,94,75,5.75,AU,1616521502
51,East London,-33.0153,27.9116,68.0,77,20,10.36,ZA,1616521522
52,Upernavik,72.7868,-56.1549,-7.96,87,100,9.62,GL,1616521522
53,Doka,13.5167,35.7667,95.97,12,16,7.2,SD,1616521522
54,Tuktoyaktuk,69.4541,-133.0374,-7.6,71,20,19.57,CA,1616521522
55,New Norfolk,-42.7826,147.0587,63.0,78,100,1.01,AU,1616521523
56,Narsaq,60.9167,-46.05,24.8,46,20,3.44,GL,1616521523
57,Avarua,-21.2078,-159.775,80.6,89,20,8.05,CK,1616521523
58,Morro Bay,35.3658,-120.8499,60.01,75,0,5.99,US,1616521267
59,Albany,42.6001,-73.9662,64.99,16,23,6.02,US,1616521441
60,Vila Velha,-20.3297,-40.2925,87.8,62,20,10.36,BR,1616521524
61,Provideniya,64.3833,-173.3,13.93,95,100,11.56,RU,1616521524
62,Sabang,5.8933,95.3214,83.61,72,52,17.54,ID,1616521524
63,Berdychiv,49.8993,28.6024,29.79,66,99,12.5,UA,1616521524
64,Vilhena,-12.7406,-60.1458,80.6,74,75,4.61,BR,1616521525
65,Gomel,52.4345,30.9754,30.2,64,0,11.18,BY,1616521525
66,São Filipe,14.8961,-24.4956,70.57,75,9,14.07,CV,1616521525
67,Cidreira,-30.1811,-50.2056,71.74,92,100,2.98,BR,1616521526
68,Boyuibe,-20.4167,-63.2833,79.95,52,96,6.53,BO,1616521526
69,Hermanus,-34.4187,19.2345,70.0,74,0,8.01,ZA,1616521526
70,Westport,41.1415,-73.3579,63.0,66,1,8.05,US,1616521526
71,Voyvozh,62.892,54.9635,18.82,96,97,5.1,RU,1616521527
72,Mahébourg,-20.4081,57.7,80.6,89,75,6.91,MU,1616521527
73,Chippewa Falls,44.9369,-91.3929,62.01,44,1,8.05,US,1616521422
74,Hilo,19.7297,-155.09,66.99,72,1,6.91,US,1616521527
75,Qasigiannguit,68.8193,-51.1922,-4.0,77,75,16.11,GL,1616521528
76,Barrow,71.2906,-156.7887,-9.4,70,75,10.36,US,1616521456
77,Hithadhoo,-0.6,73.0833,83.7,67,33,7.07,MV,1616521528
78,Nālūt,30.3333,10.85,57.43,29,1,13.6,LY,1616521528
79,Qaanaaq,77.484,-69.3632,-14.12,70,56,5.23,GL,1616521528
80,Bunia,1.5667,30.25,68.92,64,49,2.17,CD,1616521529
81,Mushie,-3.0167,16.9,80.29,70,33,2.64,CD,1616521529
82,Alice Springs,-23.7,133.8833,68.0,94,90,5.75,AU,1616521350
83,Ondjiva,-17.0667,15.7333,76.23,61,97,6.29,AO,1616521530
84,Charagua,-19.8,-63.2167,81.28,49,87,6.35,BO,1616521530
85,Saint-Philippe,-21.3585,55.7679,80.6,83,0,2.3,RE,1616521530
86,Pangody,65.85,74.4859,22.01,95,100,12.59,RU,1616521531
87,Itoman,26.1247,127.6694,64.4,55,75,8.05,JP,1616521531
88,Maumere,-8.6199,122.2111,79.39,83,72,3.47,ID,1616521531
89,Kitimat,54.0524,-128.6534,37.99,92,100,1.99,CA,1616521531
90,Kharp,66.8014,65.8081,7.77,95,83,3.91,RU,1616521532
91,Ponta Delgada,37.7333,-25.6667,55.4,88,40,17.27,PT,1616521532
92,Portland,45.5234,-122.6762,46.99,66,75,4.61,US,1616521517
93,Santo Antônio do Içá,-3.1022,-67.9397,77.16,89,97,3.42,BR,1616521532
94,Hokitika,-42.7167,170.9667,58.14,83,100,2.84,NZ,1616521533
95,Shingū,33.7333,135.9833,43.41,67,0,5.28,JP,1616521533
96,Ararat,39.8317,44.7049,59.0,47,75,14.97,AM,1616521533
97,Mersing,2.4312,103.8405,77.0,94,100,4.61,MY,1616521533
98,Airai,-8.9266,125.4092,60.21,92,87,1.34,TL,1616521534
99,Tomatlán,19.9333,-105.25,88.63,23,61,8.39,MX,1616521534
100,Santa Maria,-29.6842,-53.8069,72.93,87,100,4.59,BR,1616521534
101,Aswān,24.0934,32.907,92.68,10,0,5.73,EG,1616521535
102,Katobu,-4.9408,122.5276,75.11,92,98,1.92,ID,1616521535
103,Wanlaweyn,2.6185,44.8938,81.25,57,7,18.32,SO,1616521535
104,Yulara,-25.2406,130.9889,69.8,88,51,4.61,AU,1616521536
105,Marsh Harbour,26.5412,-77.0636,72.28,52,0,5.32,BS,1616521536
106,Am Timan,11.0297,20.2827,92.23,30,34,4.74,TD,1616521536
107,Rize,40.9044,40.8949,36.79,88,100,6.24,TR,1616521518
108,Angoche,-16.2325,39.9086,78.22,81,21,7.67,MZ,1616521536
109,Poronaysk,49.2167,143.1167,28.18,82,62,11.86,RU,1616521537
110,Farafangana,-22.8167,47.8333,77.32,89,93,6.62,MG,1616521537
111,Eyl,7.9803,49.8164,77.7,62,6,11.34,SO,1616521537
112,El Astillero,43.4009,-3.8205,59.0,72,0,5.75,ES,1616521538
113,Bandarbeyla,9.4942,50.8122,78.57,60,1,9.4,SO,1616521538
114,Port Elizabeth,-33.918,25.5701,68.0,77,0,14.97,ZA,1616521331
115,Chake Chake,-5.2459,39.7666,81.59,70,93,7.78,TZ,1616521538
116,Ponta do Sol,32.6667,-17.1,62.6,59,40,9.22,PT,1616521538
117,Ozernovskiy,51.5,156.5167,25.99,74,84,13.78,RU,1616521539
118,Talnakh,69.4865,88.3972,0.19,97,100,8.52,RU,1616521539
119,Coquimbo,-29.9533,-71.3436,66.2,68,0,17.27,CL,1616521534
120,Beïnamar,8.6698,15.3813,82.04,54,81,9.89,TD,1616521539
121,Nelson Bay,-32.7167,152.15,69.8,83,38,16.11,AU,1616521540
122,Half Moon Bay,37.4636,-122.4286,57.99,54,1,12.66,US,1616521540
123,Chokurdakh,70.6333,147.9167,-10.16,94,100,13.15,RU,1616521540
124,Hastings,50.8552,0.5729,48.2,87,47,13.8,GB,1616521540
125,Karratha,-20.7377,116.8463,81.86,66,45,8.23,AU,1616521541
126,Vao,-22.6667,167.4833,75.33,66,100,14.45,NC,1616521541
127,Ribeira Grande,38.5167,-28.7,59.0,58,40,16.11,PT,1616521541
128,Wawa,9.9022,4.4192,92.73,33,99,1.1,NG,1616521541
129,Sept-Îles,50.2001,-66.3821,51.8,40,40,10.36,CA,1616521542
130,Lagoa,39.05,-27.9833,54.93,54,100,12.06,PT,1616521542
131,Talgar,43.3027,77.2395,42.8,81,90,11.18,KZ,1616521542
132,Castro,-24.7911,-50.0119,79.77,60,23,3.98,BR,1616521543
133,Lüderitz,-26.6481,15.1594,67.41,75,17,6.89,NA,1616521543
134,Okha,53.5739,142.9478,-4.97,73,49,17.94,RU,1616521543
135,Manggar,-2.8833,108.2667,79.54,78,95,3.18,ID,1616521543
136,Gambiran,-6.7988,111.4951,75.27,92,100,3.83,ID,1616521544
137,Katsuura,35.1333,140.3,52.0,66,20,9.22,JP,1616521544
138,Rio Grande,-32.035,-52.0986,75.2,83,90,2.3,BR,1616521277
139,Qui Nhon,13.7667,109.2333,72.09,90,97,10.76,VN,1616521346
140,Le Vauclin,14.5452,-60.8388,84.2,58,20,18.41,MQ,1616521544
141,Moree,-29.4667,149.85,68.0,83,75,10.36,AU,1616521545
142,Boffa,10.1667,-14.0333,83.23,50,26,11.97,GN,1616521545
143,Provincie Utrecht,52.0,5.25,50.0,79,25,1.99,NL,1616521279
144,Klaksvík,62.2266,-6.589,46.4,93,75,27.63,FO,1616521545
145,Dukat,62.55,155.55,-6.27,95,100,6.46,RU,1616521546
146,Yeppoon,-23.1333,150.7333,77.0,94,90,6.91,AU,1616521546
147,Daru,-9.0763,143.2092,80.33,85,100,6.33,PG,1616521546
148,Nassogne,50.1285,5.3427,50.0,62,20,3.44,BE,1616521547
149,Maragogi,-9.0122,-35.2225,83.71,64,40,10.29,BR,1616521472
150,Campbell River,50.0163,-125.2446,43.0,81,90,2.26,CA,1616521547
151,Bredasdorp,-34.5322,20.0403,68.0,77,2,13.8,ZA,1616521547
152,Norman Wells,65.282,-126.8329,-2.2,71,20,16.11,CA,1616521547
153,Kapaa,22.0752,-159.319,64.4,88,1,8.05,US,1616521548
154,Cap Malheureux,-19.9842,57.6142,81.0,83,8,1.99,MU,1616521548
155,Ucluelet,48.9329,-125.5528,43.0,93,90,2.3,CA,1616521548
156,Bambous Virieux,-20.3428,57.7575,81.0,89,75,6.91,MU,1616521549
157,Tasiilaq,65.6145,-37.6368,15.8,67,40,12.66,GL,1616521549
158,Hamilton,39.1834,-84.5333,66.99,42,75,8.05,US,1616521434
159,Broome,42.2506,-75.833,64.0,30,1,9.22,US,1616521550
160,Miltenberg,49.7039,9.2644,42.01,74,60,0.96,DE,1616521550
161,Biak,-0.9131,122.8766,75.96,85,91,1.7,ID,1616521550
162,Oskemen,49.9565,82.6119,46.4,46,90,15.66,KZ,1616521550
163,Yellowknife,62.456,-114.3525,-7.01,59,90,10.36,CA,1616521480
164,Yatou,37.15,122.3833,44.44,85,35,12.35,CN,1616521551
165,Marzuq,14.4,46.4667,68.92,36,0,7.14,YE,1616521551
166,Yudong,29.385,106.5194,51.01,81,0,8.95,CN,1616521551
167,Hofn,64.2539,-15.2082,38.98,45,100,6.69,IS,1616521552
168,Longyearbyen,78.2186,15.6401,24.8,68,40,11.5,SJ,1616521296
169,Rūdarpur,26.4394,83.6144,80.38,18,63,5.68,IN,1616521552
170,Lebu,-37.6167,-73.65,62.85,73,51,10.94,CL,1616521552
171,Pisco,-13.7,-76.2167,75.2,64,0,9.22,PE,1616521553
172,Zaysan,47.4667,84.8667,35.17,81,100,5.32,KZ,1616521553
173,Quelimane,-17.8786,36.8883,74.12,93,13,5.23,MZ,1616521470
174,Krasnosel'kup,65.7,82.4667,17.65,94,100,14.14,RU,1616521553
175,Esperance,-33.8667,121.9,57.2,72,75,3.44,AU,1616521554
176,Carauari,-4.8828,-66.8958,82.62,78,100,3.8,BR,1616521554
177,Sambava,-14.2667,50.1667,78.39,85,100,2.46,MG,1616521554
178,Bethel,41.3712,-73.414,64.99,32,1,3.44,US,1616521554
179,Nipawin,53.3668,-104.0009,6.8,61,1,11.5,CA,1616521555
180,Torbay,47.6666,-52.7314,57.2,26,1,25.32,CA,1616521555
181,Aksu,41.1231,80.2644,51.06,36,87,3.71,CN,1616521555
182,Lake Charles,30.2131,-93.2044,75.2,73,1,10.36,US,1616521556
183,Souillac,-20.5167,57.5167,80.6,89,75,6.91,MU,1616521556
184,Saint George,37.1041,-113.5841,55.99,43,20,5.75,US,1616521261
185,Dhārchula,29.85,80.5333,57.38,61,89,5.84,IN,1616521556
186,Morganton,35.7454,-81.6848,63.0,63,90,5.75,US,1616521556
187,Langsa,4.4683,97.9683,72.9,96,89,5.88,ID,1616521557
188,Olecko,54.0337,22.507,34.14,89,76,2.39,PL,1616521557
189,Te Anau,-45.4167,167.7167,52.56,94,98,3.04,NZ,1616521557
190,Surin,14.8818,103.4936,77.0,66,9,9.78,TH,1616521498
191,Xingyi,24.1877,102.817,51.08,94,0,3.78,CN,1616521558
192,Northam,51.0333,-4.2167,51.01,81,58,4.0,GB,1616521558
193,Siderno,38.2779,16.302,51.8,50,20,14.97,IT,1616521558
194,Aného,6.2333,1.6,77.0,88,40,6.91,TG,1616521559
195,Bilma,18.6853,12.9164,86.58,15,2,12.19,NE,1616521559
196,Nanortalik,60.1432,-45.2371,26.58,58,15,14.88,GL,1616521559
197,Tomari,47.7658,142.0683,35.53,90,91,15.48,RU,1616521560
198,Chicama,-7.8447,-79.1469,73.4,78,0,11.5,PE,1616521560
199,Leningradskiy,69.3833,178.4167,-4.2,97,100,5.7,RU,1616521560
200,Thompson,55.7435,-97.8558,-2.2,55,1,6.91,CA,1616521560
201,Bhadrāchalam,17.6667,80.8833,80.2,50,8,4.47,IN,1616521561
202,Carnarvon,-24.8667,113.6333,73.4,78,75,18.41,AU,1616521561
203,Severo-Kuril'sk,50.6789,156.125,23.67,76,14,8.99,RU,1616521561
204,Otavi,-19.65,17.3333,67.03,81,33,6.2,NA,1616521562
205,Ancud,-41.8697,-73.8203,64.99,67,75,11.5,CL,1616521562
206,Kerema,-7.9631,145.7785,78.73,81,100,3.74,PG,1616521562
207,Ilulissat,69.2167,-51.1,-4.0,77,75,16.11,GL,1616521562
208,Port Hardy,50.6996,-127.4199,42.8,81,90,5.75,CA,1616521504
209,Saint-Pierre,-21.3393,55.4781,80.6,83,0,2.3,RE,1616521563
210,Katangli,51.7102,143.2326,-3.44,86,96,7.25,RU,1616521563
211,Molėtai,55.2333,25.4167,32.0,47,0,6.91,LT,1616521563
212,Khanpur,28.6453,70.6567,75.38,19,0,5.95,PK,1616521564
213,Örnsköldsvik,63.2909,18.7153,46.4,71,0,5.75,SE,1616521564
214,Tra Vinh,9.9347,106.3453,81.03,73,100,10.6,VN,1616521564
215,Saint Anthony,45.0205,-93.218,57.0,71,1,6.91,US,1616521565
216,Hūn,29.1268,15.9477,61.34,24,5,16.93,LY,1616521565
217,Madera,37.1666,-119.8343,53.01,70,12,1.99,US,1616521565
218,Maceió,-9.6658,-35.7353,77.0,88,90,5.75,BR,1616521433
219,Virginia Beach,36.8529,-75.978,57.99,72,90,18.41,US,1616521301
220,Geraldton,-28.7667,114.6,62.6,63,0,13.8,AU,1616521566
221,Soyo,-6.1349,12.3689,80.28,84,39,8.05,AO,1616521566
222,Srednekolymsk,67.45,153.6833,-1.46,97,100,10.42,RU,1616521566
223,Tiarei,-17.5333,-149.3333,82.4,78,40,1.14,PF,1616521567
224,Christchurch,-43.5333,172.6333,57.99,88,90,2.3,NZ,1616521495
225,Loa Janan,-0.583,117.095,73.51,98,99,1.61,ID,1616521567
226,Roald,62.5833,6.1333,51.8,58,75,12.66,NO,1616521567
227,Goderich,43.7501,-81.7165,62.6,20,100,10.36,CA,1616521568
228,Cabo San Lucas,22.8909,-109.9124,75.0,60,20,4.61,MX,1616521568
229,Porto de Moz,-1.7483,-52.2383,81.52,81,81,1.59,BR,1616521568
230,Muroto-misakicho,33.2833,134.15,54.82,66,0,7.45,JP,1616521568
231,Swan Hill,-35.3378,143.5544,61.57,87,13,11.5,AU,1616521569
232,Yichang,30.7144,111.2847,50.0,77,0,2.68,CN,1616521569
233,Hwange,-18.3693,26.5019,72.37,74,57,2.46,ZW,1616521339
234,Purpe,64.4803,76.6897,23.67,94,100,17.11,RU,1616521569
235,Vylkove,45.4021,29.586,39.9,68,80,10.09,UA,1616521569
236,Gizo Government Station,-8.103,156.8419,81.68,78,87,6.33,SB,1616521570
237,Zhigansk,66.7697,123.3711,-28.44,100,85,7.29,RU,1616521570
238,Dubréka,9.7911,-13.5233,86.0,48,0,16.11,GN,1616521570
239,Flinders,-34.5833,150.8552,66.99,98,7,1.01,AU,1616521571
240,Asău,46.4333,26.4,33.01,68,100,8.34,RO,1616521571
241,Batagay-Alyta,67.8006,130.4114,-16.64,94,100,3.38,RU,1616521571
242,Baracoa,20.3467,-74.4958,82.71,60,3,5.64,CU,1616521571
243,Kang,-23.6752,22.7876,68.97,72,97,14.65,BW,1616521572
244,Ola,59.5833,151.2833,-6.45,97,76,2.48,RU,1616521572
245,Phan Thiet,10.9333,108.1,77.47,76,90,8.1,VN,1616521572
246,Nyurba,63.2842,118.3319,-24.25,100,74,1.99,RU,1616521573
247,Ashgabat,37.95,58.3833,60.8,51,90,6.91,TM,1616521573
248,Tigil',57.8,158.6667,12.72,78,39,15.97,RU,1616521573
249,Iqaluit,63.7506,-68.5145,-18.0,57,20,20.71,CA,1616521573
250,Ipixuna,-1.7625,-48.8043,87.8,84,75,6.91,BR,1616521574
251,Kupang,-10.1667,123.5833,78.93,83,74,4.32,ID,1616521574
252,Lixouri,38.2019,20.4314,53.6,76,40,10.36,GR,1616521574
253,Constitución,-35.3333,-72.4167,68.07,55,5,13.6,CL,1616521575
254,Sandovo,58.4602,36.4128,17.33,95,48,3.56,RU,1616521575
255,Mokhsogollokh,61.4681,128.9203,-13.38,88,93,9.89,RU,1616521575
256,Makkah al Mukarramah,21.4267,39.8261,82.65,24,0,6.13,SA,1616521322
257,Pangnirtung,66.1451,-65.7125,-23.8,62,40,3.44,CA,1616521576
258,Clyde River,70.4692,-68.5914,-13.0,64,75,11.5,CA,1616521576
259,Camopi,3.1655,-52.3158,74.95,96,98,4.09,GF,1616521576
260,Margate,51.3813,1.3862,51.01,63,35,4.0,GB,1616521576
261,Baruun-Urt,46.6806,113.2792,32.31,72,65,7.76,MN,1616521577
262,‘Āhuimanu,21.4447,-157.8378,69.8,94,90,2.35,US,1616521577
263,Rūdsar,37.1376,50.288,53.6,94,90,4.61,IR,1616521325
264,San Patricio,28.017,-97.5169,86.0,50,75,12.66,US,1616521577
265,Tongchuanshi,35.0806,109.0897,51.67,40,0,3.85,CN,1616521578
266,Kathu,7.9178,98.3332,88.0,74,20,4.61,TH,1616521578
267,Arraial do Cabo,-22.9661,-42.0278,84.2,74,0,13.8,BR,1616521578
268,Lorengau,-2.0226,147.2712,80.58,76,99,2.59,PG,1616521578
269,Fort Morgan,40.2503,-103.8,44.6,49,1,23.02,US,1616521579
270,Aleppo Governorate,36.25,37.5,54.93,94,38,10.04,SY,1616521579
271,Sussex,41.1834,-74.6663,64.99,34,1,4.9,US,1616521579
272,Alta Floresta,-9.8756,-56.0861,87.8,62,40,5.75,BR,1616521580
273,Monte Alegre,-2.0078,-54.0692,86.79,56,90,2.55,BR,1616521580
274,Camaná,-16.6228,-72.7111,75.56,72,98,10.2,PE,1616521580
275,Aksay,47.26,39.87,37.0,87,75,8.95,RU,1616521580
276,Tumaco,1.7986,-78.8156,83.62,66,65,7.27,CO,1616521581
277,Ferkessédougou,9.6,-5.2,93.31,32,68,4.68,CI,1616521581
278,Heihe,50.2441,127.4902,14.0,52,0,0.92,CN,1616521581
279,Pacific Grove,36.6177,-121.9166,57.2,54,1,6.91,US,1616521289
280,Jardim,-21.4803,-56.1381,94.59,31,90,6.89,BR,1616521582
281,Villazón,-22.0866,-65.5942,60.96,45,94,13.98,BO,1616521582
282,Samarai,-10.6167,150.6667,81.79,80,100,8.86,PG,1616521582
283,Pueblo,38.2545,-104.6091,48.99,46,20,16.11,US,1616521583
284,Saint-François,46.4154,3.9054,53.6,50,0,5.75,FR,1616521583
285,Miraflores,19.2167,-98.8083,75.2,17,1,5.75,MX,1616521583
286,Moose Factory,51.2585,-80.6094,35.6,75,90,4.61,CA,1616521584
287,Kyzyl-Suu,42.3414,78.0056,40.91,67,98,5.97,KG,1616521584
288,Birobidzhan,48.8,132.95,16.41,76,1,4.47,RU,1616521584
289,Balkanabat,39.5108,54.3671,63.86,43,10,9.08,TM,1616521584
290,Dhidhdhoo,6.8833,73.1,83.46,72,79,7.96,MV,1616521510
291,Houma,29.5958,-90.7195,75.0,83,90,13.8,US,1616521485
292,Ubari,26.5921,12.7805,61.3,17,0,10.0,LY,1616521585
293,Loíza,18.4313,-65.8802,84.2,51,40,13.8,PR,1616521585
294,Banepā,27.6298,85.5214,62.6,59,75,5.75,NP,1616521585
295,Kapuskasing,49.4169,-82.4331,42.8,70,100,6.91,CA,1616521586
296,Vardø,70.3705,31.1107,30.2,80,76,42.57,NO,1616521586
297,Avera,33.194,-82.5271,71.6,56,40,5.75,US,1616521587
298,Nome,64.5011,-165.4064,-0.4,78,90,10.36,US,1616521580
299,Elizabeth City,36.2946,-76.2511,64.0,72,90,16.11,US,1616521587
300,San Quintín,30.4833,-115.95,57.72,74,90,13.65,MX,1616521587
301,Pevek,69.7008,170.3133,2.86,80,100,5.93,RU,1616521587
302,Mercedes,-34.6515,-59.4307,84.0,50,0,1.99,AR,1616521588
303,Salina Cruz,16.1667,-95.2,85.5,54,2,16.44,MX,1616521588
304,Jaisalmer,26.9147,70.9181,79.92,16,0,4.23,IN,1616521588
305,Playas,-2.6333,-80.3833,79.95,70,76,7.07,EC,1616521589
306,Novoagansk,61.9449,76.6625,24.66,91,100,11.95,RU,1616521589
307,Óbidos,-1.9175,-55.5181,86.63,57,96,6.35,BR,1616521589
308,Basco,20.4487,121.9702,74.26,76,100,18.63,PH,1616521589
309,Alofi,-19.0595,-169.9187,78.8,94,40,5.75,NU,1616521590
310,Kumul,42.8,93.45,48.56,28,54,3.44,CN,1616521590
311,Alexandria,31.2156,29.9553,62.6,67,40,17.27,EG,1616521590
312,Faanui,-16.4833,-151.75,83.28,74,16,19.55,PF,1616521591
313,San Vicente,-26.6167,-54.1333,78.31,76,100,2.26,AR,1616521591
314,Poum,-20.2333,164.0167,78.15,75,86,14.97,NC,1616521591
315,Kiryat Gat,31.61,34.7642,68.0,100,98,1.01,IL,1616521592
316,Touros,-5.1989,-35.4608,87.8,55,40,16.11,BR,1616521592
317,Cabrera,19.6426,-69.9049,86.0,69,40,4.61,DO,1616521592
318,Izhevskoye,54.5567,40.8703,27.37,89,79,10.02,RU,1616521592
319,Callaway,30.153,-85.5699,75.0,64,75,16.11,US,1616521593
320,Recife,-8.0539,-34.8811,84.2,61,40,10.36,BR,1616521593
321,Lompoc,34.6391,-120.4579,57.0,58,20,10.36,US,1616521593
322,Fortuna,40.5982,-124.1573,51.01,66,1,8.05,US,1616521594
323,Nouadhibou,20.931,-17.0347,68.0,73,0,20.71,MR,1616521594
324,Bom Jesus,-9.0744,-44.3586,84.38,57,69,1.52,BR,1616521594
325,Venice,27.0998,-82.4543,73.0,68,1,9.22,US,1616521505
326,Meulaboh,4.1363,96.1285,77.27,86,96,1.88,ID,1616521382
327,Isangel,-19.55,169.2667,74.79,81,97,9.75,VU,1616521594
328,Badiraguato,25.3667,-107.5167,69.8,46,75,6.91,MX,1616521595
329,Haverfordwest,51.8017,-4.9691,50.0,89,100,18.01,GB,1616521595
330,Kavaratti,10.5669,72.642,83.32,71,0,8.28,IN,1616521595
331,Sørland,67.667,12.6934,37.4,93,75,13.8,NO,1616521596
332,Menongue,-14.6585,17.691,69.21,81,96,4.99,AO,1616521596
333,Tortolì,39.9256,9.6572,50.0,57,20,28.77,IT,1616521596
334,Fairbanks,64.8378,-147.7164,12.2,85,75,2.08,US,1616521597
335,Naze,28.3667,129.4833,57.16,63,95,9.51,JP,1616521597
336,Ankang,32.68,109.0172,48.0,23,0,5.99,CN,1616521597
337,Olavarría,-36.8927,-60.3225,75.99,51,0,5.01,AR,1616521597
338,Ugoofaaru,5.6667,73.0,81.77,75,74,6.91,MV,1616521598
339,Ust'-Tarka,55.5672,75.705,24.24,95,100,7.25,RU,1616521598
340,San Jose,37.3394,-121.895,59.0,44,1,19.57,US,1616521180
341,Kelso,46.1468,-122.9084,45.0,81,20,4.61,US,1616521598
342,Whitehorse,60.7161,-135.0538,18.0,79,90,13.8,CA,1616521599
343,Kwinana,-32.25,115.7667,61.0,55,2,13.8,AU,1616521599
344,Guerrero Negro,27.9769,-114.0611,62.35,59,37,19.08,MX,1616521599
345,Beaverlodge,55.2166,-119.4361,26.6,80,75,4.61,CA,1616521599
346,Terråk,65.087,12.3715,44.6,93,75,24.16,NO,1616521600
347,Wanning,18.8003,110.3967,70.02,88,83,6.29,CN,1616521600
348,Plouzané,48.3833,-4.6167,53.6,71,0,11.5,FR,1616521600
349,Cayenne,4.9333,-52.3333,84.2,74,75,16.11,GF,1616521600
350,Vertou,47.1687,-1.4693,57.2,51,20,3.44,FR,1616521601
351,Les Cayes,18.2,-73.75,81.91,62,40,9.35,HT,1616521601
352,Tabuk,17.4189,121.4443,70.12,95,92,1.23,PH,1616521601
353,Kibala,9.1104,18.3463,98.6,32,20,4.38,TD,1616521602
354,Nemuro,43.3236,145.575,37.15,72,85,27.38,JP,1616521602
355,Makurdi,7.7411,8.5121,86.27,47,86,3.98,NG,1616521602
356,Bathsheba,13.2167,-59.5167,84.2,51,20,23.02,BB,1616521602
357,Esil,51.9556,66.4042,7.18,98,65,6.58,KZ,1616521603
358,Vienna,48.2085,16.3721,45.0,65,20,14.97,AT,1616521603
359,Beloha,-25.1667,45.05,72.64,81,57,4.97,MG,1616521603
360,Alamosa,37.4695,-105.87,39.2,48,75,6.44,US,1616521604
361,Port Victoria,0.0939,33.9756,76.59,64,80,5.97,KE,1616521604
362,Hartford,41.7668,-72.7662,64.99,42,1,3.44,US,1616521513
363,North Bend,43.4065,-124.2243,48.99,87,1,8.28,US,1616521604
364,Clarence Town,-32.5833,151.7833,69.8,83,49,16.11,AU,1616521604
365,Van Buren,35.4368,-94.3483,60.01,67,75,17.27,US,1616521570
366,Sawākin,19.1059,37.3321,81.55,66,5,8.21,SD,1616521605
367,Atar,20.5169,-13.0499,92.53,9,7,11.32,MR,1616521605
368,Wasilla,61.5814,-149.4394,24.01,58,90,1.19,US,1616521605
369,Longkou,37.6508,120.3286,48.92,57,17,13.98,CN,1616521606
370,Chernyshevskiy,63.0128,112.4714,-10.21,100,100,1.57,RU,1616521606
371,Mehamn,71.0357,27.8492,32.0,93,90,34.52,NO,1616521606
372,Puerto Escondido,15.85,-97.0667,86.0,79,1,10.36,MX,1616521606
373,Sioux Lookout,50.1001,-91.917,42.8,36,90,4.61,CA,1616521364
374,Oranjemund,-28.55,16.4333,67.78,76,1,3.91,NA,1616521607
375,Dedza,-14.3779,34.3332,58.95,97,94,2.62,MW,1616521607
376,Amarante,-6.2411,-42.8547,86.13,65,95,2.17,BR,1616521607
377,Necochea,-38.5473,-58.7368,81.0,42,0,3.0,AR,1616521608
378,Grand Gaube,-20.0064,57.6608,81.0,83,7,1.99,MU,1616521608
379,Saldanha,-33.0117,17.9442,89.6,20,7,8.05,ZA,1616521608
380,Arlit,18.7369,7.3853,89.01,5,28,11.18,NE,1616521609
381,Waipawa,-41.4122,175.5153,53.6,94,1,6.91,NZ,1616521609
382,Nanhai,30.1282,111.7784,50.0,81,0,6.51,CN,1616521609
383,Darhan,49.4867,105.9228,29.39,78,68,7.67,MN,1616521610
384,Malmesbury,-33.4608,18.7271,78.01,61,1,7.56,ZA,1616521610
385,Khandyga,62.6667,135.6,-12.95,99,100,1.32,RU,1616521610
386,Shirokiy,49.758,129.523,16.02,65,5,3.83,RU,1616521610
387,Banda Aceh,5.5577,95.3222,80.35,75,75,7.99,ID,1616521611
388,Huarmey,-10.0681,-78.1522,76.96,69,97,12.5,PE,1616521611
389,Laas,46.6166,10.7002,59.0,48,0,5.75,IT,1616521611
390,Santa Cruz de La Palma,28.6835,-17.7642,68.0,52,20,9.22,ES,1616521611
391,Salé,34.0389,-6.8166,64.4,52,0,6.91,MA,1616521612
392,Garh Maharaja,30.8339,71.9053,64.58,68,68,13.04,PK,1616521612
393,Mount Isa,-20.7333,139.5,77.0,83,75,5.75,AU,1616521612
394,Emerald,-23.5333,148.1667,78.8,89,90,4.61,AU,1616521612
395,Charters Towers,-20.1,146.2667,76.24,81,81,2.91,AU,1616521613
396,Egvekinot,66.3167,-179.1667,7.47,95,100,10.29,RU,1616521613
397,Auki,-8.7676,160.7034,76.98,87,71,3.44,SB,1616521613
398,Dawson Creek,55.7666,-120.2362,21.2,79,75,5.75,CA,1616521614
399,Hasaki,35.7333,140.8333,41.0,87,20,1.14,JP,1616521614
400,El Batey,19.7667,-70.5167,82.4,78,20,11.5,DO,1616521614
401,Muscat,23.6139,58.5922,78.8,50,0,3.44,OM,1616521614
402,Tolmin,46.183,13.7332,43.0,46,88,2.91,SI,1616521615
403,Harindānga,22.0383,88.3214,84.2,48,8,14.67,IN,1616521615
404,Morgan City,29.6994,-91.2068,60.8,100,90,3.44,US,1616521615
405,Savonlinna,61.8699,28.88,35.6,80,0,11.5,FI,1616521616
406,Novobiryusinskiy,56.9578,97.7076,28.92,91,98,6.02,RU,1616521616
407,Bishnupur,23.0833,87.3167,82.51,40,25,5.75,IN,1616521616
408,Polunochnoye,60.8697,60.4153,16.45,94,87,4.74,RU,1616521617
409,Paamiut,61.994,-49.6678,19.49,66,100,11.34,GL,1616521617
410,Nzega,-2.479,29.5564,57.88,93,87,2.15,RW,1616521617
411,Çubuk,40.2386,33.0322,37.4,81,75,13.8,TR,1616521618
412,Pathein,16.7833,94.7333,76.86,80,3,5.44,MM,1616521468
413,Palana,59.1167,159.9667,4.73,73,100,30.94,RU,1616521618
414,Sinnamary,5.3833,-52.95,78.31,87,99,10.38,GF,1616521618
415,Aklavik,68.2191,-135.0107,-7.6,71,40,18.41,CA,1616521619
416,Panjāb,34.388,67.0233,18.9,83,6,4.16,AF,1616521619
417,Dawlatabad,36.4141,64.9053,60.55,57,85,6.64,AF,1616521619
418,Morondava,-20.2833,44.2833,81.61,77,0,11.14,MG,1616521619
419,Chu,43.5983,73.7614,40.64,76,99,4.56,KZ,1616521620
420,Mitú,1.1983,-70.1733,72.73,95,100,2.75,CO,1616521620
421,Tilichiki,60.4667,166.1,11.41,92,100,5.21,RU,1616521620
422,Talcahuano,-36.7167,-73.1167,68.0,60,0,12.66,CL,1616521620
423,Whitianga,-36.8333,175.7,55.0,94,8,1.01,NZ,1616521621
424,Kemijärvi,66.7131,27.4306,34.83,79,100,10.74,FI,1616521621
425,Manzhouli,49.6,117.4333,27.64,71,32,7.56,CN,1616521621
426,Los Llanos de Aridane,28.6585,-17.9182,68.0,52,20,9.22,ES,1616521622
427,Ketchikan,55.3422,-131.6461,41.0,100,90,17.27,US,1616521622
428,Kärdla,58.9978,22.7492,42.8,65,0,5.75,EE,1616521622
429,Spišská Nová Ves,48.9446,20.5615,33.01,86,75,13.8,SK,1616521622
430,Port Blair,11.6667,92.75,82.08,76,96,4.0,IN,1616521623
431,Khatanga,71.9667,102.5,-12.89,93,100,3.96,RU,1616521623
432,Ambilobe,-13.2,49.05,74.28,96,82,3.31,MG,1616521623
433,Deputatsky,69.3,139.9,-19.68,95,100,4.65,RU,1616521623
434,Capinópolis,-18.6819,-49.5697,88.95,34,98,4.7,BR,1616521624
435,Bam,29.106,58.357,74.8,12,69,8.03,IR,1616521624
436,Lamballe,48.4676,-2.5144,57.2,47,0,5.75,FR,1616521624
437,Umluj,25.0213,37.2685,86.83,30,5,23.91,SA,1616521625
438,Fandriana,-20.2333,47.3833,64.24,94,100,1.92,MG,1616521625
439,Mattawa,46.7379,-119.9028,50.0,43,1,1.12,US,1616521625
440,Copiapó,-27.3667,-70.3333,69.8,56,0,12.66,CL,1616521514
441,Barra do Garças,-15.89,-52.2567,86.0,58,75,2.3,BR,1616521625
442,Marck,50.949,1.9433,52.0,47,51,1.99,FR,1616521626
443,Dvinskoy,62.1535,45.1175,22.64,91,87,7.09,RU,1616521626
444,Indianola,41.3581,-93.5574,51.01,87,90,12.66,US,1616521626
445,Bajil,15.0584,43.2851,83.43,45,2,6.11,YE,1616521627
446,Strezhevoy,60.7333,77.5889,21.2,63,0,6.71,RU,1616521627
447,Ballina,-28.8667,153.5667,71.01,100,35,9.31,AU,1616521627
448,Jumla,29.2747,82.1838,43.3,78,66,5.19,NP,1616521628
449,San Cristobal,7.7669,-72.225,84.2,65,40,6.91,VE,1616521628
450,Valparaíso,-33.0393,-71.6273,66.2,72,0,10.36,CL,1616521628
451,Alekseyevskaya,50.2896,42.1845,33.01,88,100,7.0,RU,1616521629
452,Taos,36.4072,-105.5731,44.01,26,1,3.44,US,1616521629
453,Bandar-e Lengeh,26.5579,54.8807,75.2,83,5,3.27,IR,1616521629
454,Taganak,6.0833,118.3,78.8,94,20,2.3,PH,1616521629
455,Taunggyi,20.7833,97.0333,65.62,43,0,3.51,MM,1616521630
456,Conceição da Barra,-18.5933,-39.7322,84.18,58,12,8.21,BR,1616521630
457,Nesebar,42.7833,27.7333,37.4,70,20,10.36,BG,1616521630
458,Muli,2.9167,73.5667,81.21,74,37,3.02,MV,1616521630
459,Byron Bay,-28.65,153.6167,73.0,100,39,8.55,AU,1616521631
460,Bonavista,48.6499,-53.1147,59.0,23,2,12.66,CA,1616521631
461,Kidal,18.4411,1.4078,89.29,5,55,13.8,ML,1616521631
462,Manokwari,-0.8667,134.0833,78.55,77,96,3.58,ID,1616521632
463,Itarema,-2.9248,-39.9167,83.23,69,38,10.02,BR,1616521632
464,Alyangula,-13.8483,136.4192,81.82,82,100,10.33,AU,1616521632
465,Makaha,21.4694,-158.2175,69.8,100,40,4.61,US,1616521632
466,Wałcz,53.2779,16.4712,42.01,73,100,3.0,PL,1616521633
467,Tay Ninh,11.3,106.1,83.19,57,99,5.66,VN,1616521633
468,Merrill,45.1805,-89.6835,62.6,48,75,11.5,US,1616521633
469,Hvide Sande,56.0045,8.1294,42.01,83,27,12.97,DK,1616521634
470,Nioro,13.35,-15.75,98.35,10,82,5.99,GM,1616521634
471,Jalingo,8.8833,11.3667,89.38,43,77,4.61,NG,1616521634
472,Esim,4.8699,-2.2405,81.14,79,99,9.28,GH,1616521634
473,Mukhen,48.1,136.1,17.78,77,37,5.93,RU,1616521635
474,Severobaykal'sk,55.65,109.3167,17.64,95,96,3.47,RU,1616521635
475,Najrān,17.4924,44.1277,78.8,13,0,4.61,SA,1616521635
476,Valle Nacional,17.7833,-96.3167,100.2,24,0,5.53,MX,1616521636
477,Bambanglipuro,-7.95,110.2833,77.88,85,100,5.28,ID,1616521636
478,Bereket,39.2446,55.5154,61.81,50,8,7.78,TM,1616521636
479,Abhā,18.2164,42.5053,69.8,56,0,10.36,SA,1616521409
480,Mount Gambier,-37.8333,140.7667,60.8,94,75,12.66,AU,1616521636
481,The Pas,53.8251,-101.2541,1.4,55,1,9.22,CA,1616521484
482,Vila do Maio,15.1333,-23.2167,75.2,57,40,20.71,CV,1616521637
483,León,21.1167,-101.6667,73.4,17,1,11.9,MX,1616521345
484,Waddān,29.1614,16.139,60.75,25,5,17.05,LY,1616521637
485,Mayumba,-3.432,10.6554,78.91,80,100,4.34,GA,1616521637
486,Mariehamn,60.0973,19.9348,39.2,75,0,4.61,AX,1616521638
487,Zhuji,29.7188,120.2423,59.0,55,40,6.71,CN,1616521638
488,Paraíso,9.8383,-83.8656,82.4,50,0,11.5,CR,1616521638
489,Sonoita,31.85,-112.8333,64.0,27,0,7.0,MX,1616521639
490,Bahía de Caráquez,-0.6,-80.4167,80.6,69,40,10.36,EC,1616521639
491,Napier City,-39.4833,176.9167,48.99,92,3,4.56,NZ,1616521639
492,Morón,-34.6534,-58.6198,78.01,47,40,3.44,AR,1616521640
493,Henties Bay,-22.116,14.2845,64.0,90,2,5.99,NA,1616521640
494,Rwamagana,-1.9487,30.4347,69.8,73,75,6.91,RW,1616521640
495,Trairi,-3.2778,-39.2689,82.98,69,45,7.92,BR,1616521641
496,Sola,-13.8833,167.55,80.46,72,15,6.33,VU,1616521641
497,Varkala,8.7341,76.7067,86.0,66,40,2.3,IN,1616521641
498,Ostrovnoy,68.0531,39.5131,30.87,87,89,19.26,RU,1616521641
499,Eidfjord,60.4675,7.0719,42.69,95,98,4.85,NO,1616521642
500,Walvis Bay,-22.9575,14.5053,69.8,64,27,9.22,NA,1616521642
501,Marathon,44.9,-89.7668,62.6,42,1,13.8,US,1616521597
502,Caravelas,-17.7125,-39.2481,83.98,59,5,8.99,BR,1616521642
503,Krasnoyarskiy,51.965,59.8967,17.89,95,90,8.03,RU,1616521643
504,Nortelândia,-14.4547,-56.8028,88.63,50,22,4.16,BR,1616521643
505,San Policarpo,12.1791,125.5072,79.7,83,94,14.58,PH,1616521643
506,Lady Frere,-31.7031,27.2329,58.33,81,18,4.72,ZA,1616521644
507,Rocha,-34.4833,-54.3333,74.26,61,62,5.1,UY,1616521526
508,Ambulu,-8.345,113.6058,76.89,88,99,2.44,ID,1616521644
509,Vestmanna,62.1564,-7.1664,46.4,93,75,27.63,FO,1616521644
510,Requena,39.4883,-1.1004,59.0,67,0,8.05,ES,1616521645
511,Bend,44.0582,-121.3153,39.2,48,1,4.61,US,1616521645
512,Kloulklubed,7.0419,134.2556,78.8,89,75,6.91,PW,1616521645
513,Labuhan,-6.8844,112.2051,78.15,87,96,5.99,ID,1616521645
514,Laguna,38.421,-121.4238,59.0,38,1,24.16,US,1616521646
515,Saint-Augustin,51.226,-58.6502,38.91,99,92,10.56,CA,1616521646
516,Thinadhoo,0.5333,72.9333,83.39,67,54,5.3,MV,1616521646
517,Orange Cove,36.6244,-119.3137,51.01,76,29,4.0,US,1616521646
518,Xining,36.6167,101.7667,39.83,24,49,1.97,CN,1616521647
519,Libenge,3.65,18.6333,83.37,48,58,0.54,CD,1616521647
520,Bāsudebpur,21.1353,86.7386,77.32,67,17,9.31,IN,1616521647
521,Genhe,50.7833,121.5167,13.23,99,89,1.79,CN,1616521648
522,Beringovskiy,63.05,179.3167,27.52,86,86,13.98,RU,1616521648
523,Lodwar,3.1191,35.5973,89.98,31,100,20.65,KE,1616521648
524,Córdoba,-31.4135,-64.1811,80.01,53,20,12.66,AR,1616521351
525,The Valley,18.217,-63.0578,86.0,74,20,11.5,AI,1616521424
526,Petatlán,17.5167,-101.2667,82.4,61,1,6.96,MX,1616521648
527,Āron,24.3833,77.4167,77.43,35,57,5.59,IN,1616521649
528,Chaman,30.9236,66.4512,59.13,32,1,3.83,PK,1616521649
529,Nobres,-14.7203,-56.3275,86.95,57,50,5.48,BR,1616521649
530,Freeport,40.6576,-73.5832,64.0,55,1,6.91,US,1616521458
531,Kahului,20.8947,-156.47,72.0,100,1,4.61,US,1616521650
532,Tual,-5.6667,132.75,83.68,72,73,5.23,ID,1616521650
533,Tuatapere,-46.1333,167.6833,53.01,98,100,2.66,NZ,1616521650
534,Alice Town,25.7167,-79.3,70.25,58,0,5.7,BS,1616521651
535,Kushālgarh,23.199,74.4507,83.32,20,7,11.83,IN,1616521651
536,Shestakovo,56.4915,103.96,29.75,94,100,10.11,RU,1616521651
537,Korla,41.7597,86.1469,51.57,35,99,3.13,CN,1616521651
538,Ialibu,-6.2821,143.9935,55.99,99,100,2.28,PG,1616521652
539,Matagami,49.7502,-77.6328,42.8,42,1,4.61,CA,1616521652
540,Belozërskoye,55.8214,65.5842,13.95,96,44,7.99,RU,1616521652
541,High Level,58.5169,-117.136,5.0,78,40,3.22,CA,1616521496
542,Taoudenni,22.6783,-3.9836,80.94,8,2,13.78,ML,1616521653
543,Semnan,35.5729,53.3971,64.69,32,100,2.8,IR,1616521653
544,Praia,14.9215,-23.5087,75.2,57,40,20.71,CV,1616521653
545,Río Gallegos,-51.6226,-69.2181,55.4,44,90,28.77,AR,1616521653
546,Nsanje,-16.92,35.262,72.48,98,100,4.76,MW,1616521654
547,Kaiwaka,-36.1667,174.45,51.01,93,3,2.55,NZ,1616521654
548,Sur,22.5667,59.5289,78.76,47,0,12.12,OM,1616521654
549,Antalaha,-14.9003,50.2788,77.29,87,87,2.48,MG,1616521654
550,Yangi Marg`ilon,40.4272,71.7189,50.0,71,100,4.61,UZ,1616521655
551,Kapoeta,4.7717,33.5903,89.69,24,99,6.64,SS,1616521655
552,Tālbahat,25.05,78.4333,76.41,35,83,9.15,IN,1616521655
553,Luba,3.4568,8.5547,84.2,79,20,9.22,GQ,1616521656
554,Sistranda,63.7256,8.834,46.4,81,75,10.36,NO,1616521656
555,Kismayo,-0.3582,42.5454,80.82,80,36,12.86,SO,1616521656
556,Lubbock,33.6001,-101.8338,53.6,54,20,8.28,US,1616521554
